{
  "allApplications": [
    {
      "id": "1",
      "address": "ул. Ленина 124",
      "coordinates": [
        47.232664,
        39.69887
      ],
      "accidentType": "lowQualityWater",
      "priority": "1",
      "name": "Иван",
      "phone": "+7 (987) 890-89-90"
    },
    {
      "id": "2",
      "phone": "+79678070949",
      "name": "Дарья Александровна Белоусова",
      "accidentType": "breakthrough",
      "priority": "4",
      "address": "ул. Лукачева 34",
      "coordinates": [
        47.22211,
        39.718808
      ]
    },
    {
      "id": "3",
      "phone": "+79678070949",
      "name": "Дарья Александровна Белоусова",
      "accidentType": "outdoorColumn",
      "priority": "3",
      "address": "ул. Лукачева 34",
      "coordinates": [
        47.22211,
        39.718808
      ]
    },
    {
      "id": "4",
      "phone": "+79678070949",
      "name": "Дарья Александровна Белоусова",
      "accidentType": "other",
      "priority": "2",
      "address": "ул. Лукачева 34",
      "coordinates": [
        47.22211,
        39.718808
      ]
    },
    {
      "id": "5",
      "phone": "+79678070949",
      "name": "Дарья Александровна Белоусова",
      "accidentType": "blockage",
      "priority": "4",
      "address": "ул. Лукачева 34",
      "coordinates": [
        47.22211,
        39.718808
      ]
    },
    {
      "id": "6",
      "phone": "+79678070949",
      "name": "Дарья Александровна Белоусова",
      "accidentType": "leak",
      "priority": "1",
      "address": "ул. Лукачева 34",
      "coordinates": [
        47.22211,
        39.718808
      ]
    },
    {
      "id": "7",
      "phone": "",
      "name": "",
      "accidentType": "",
      "priority": "4",
      "address": "",
      "coordinates": [
        47.22211,
        39.718808
      ]
    }
  ],
  "lastID": {
    "data": 8
  }
}